,Segment ID,Roadway Name,From,To,From Lat,From Lon,To Lat,To Lon
0,2153,HUGUENOT AVE,WOODROW RD,STAFFORD AVE,40.5432265,-74.19728429999999,40.5425378,-74.19700920000001
1,6644,RICHMOND HILL ROAD,EDINBORO ROAD,FOREST HILL ROAD,40.5811932,-74.1530526,40.5806141,-74.1525269
2,7564,MORLEY AVENUE,DALTON  AVENUE,EBONY STREET,40.5754393,-74.12691079999999,40.5757198,-74.1260446
3,11599,OCEAN TERRACE,BUTTERWORTH AVENUE,COVERLY AVENUE,40.6037037,-74.1057907,40.6033573,-74.1047435
4,12945,LITTLE CLOVE RD,CAYUGA AVENUE,RENWICK AVENUE,40.6108643,-74.1004282,40.6111769,-74.1055983
5,13133,CLOVE RD,HOWARD AVENUE,LITTLE CLOVE ROAD,40.6124437,-74.0992938,40.6114204,-74.09862319999999
6,14602,HYLAN BOULEVARD,FINGERBOARD ROAD,RODERICK AVENUE,40.60147,-74.072462,40.6022245,-74.0735839
7,17319,86 STREET,7 AVENUE,14 AVENUE,40.6184722,-74.02121439999999,40.612735,-74.011712
8,17652,4 AVENUE,68 STREET,SENATOR STREET,40.635318,-74.023235,40.63611119999999,-74.0229129
9,18635,CROPSEY AVE ,BAY 22nd ST,BAY 23rd ST,40.6010201,-74.004363,40.600625,-74.00359449999999
10,18641,BATH AVE ,BAY 22nd ST,BAY 23rd ST,40.60226000000001,-74.003067,40.601866,-74.002315
11,18653,BENSON AVE ,19th AVE,BAY 20th ST,40.60384699999999,-74.00263,40.604259,-74.00340899999999
12,18846,SHORE PKWY,BAY 46th ST,27th AVE,40.58715919999999,-73.99106979999999,40.5878012,-73.9914892
13,19202,86th ST ,W 11th ST,W 12th ST,40.5947705,-73.9819765,40.595417,-73.98306339999999
14,19244,KINGS HWY,W 11th ST,W 12th ST,40.6055885,-73.9840498,40.6057299,-73.9850137
15,19313,AVE U,W 10th ST,W 11th ST,40.5960832,-73.9812773,40.595986,-73.9822198
16,19437,BAY RIDGE PKWY,11TH AVE,12TH AVE,40.6229475,-74.011855,40.62160799999999,-74.0096391
17,19463,8 AVENUE,66 STREET,67 STREET,40.6320285,-74.0131643,40.63148169999999,-74.01373439999999
18,19566,65 STREET,10 AVENUE,11 AVENUE,40.629974,-74.008128,40.628644,-74.005926
19,19641,13 AVENUE,72 STREET,73 STREET,40.6220276,-74.00564849999999,40.621468,-74.00622709999999
20,19761,14 AVENUE,72 STREET,73 STREET,40.6206894,-74.00344129999999,40.6201427,-74.0040203
21,19805,60 STREET,11 AVENUE,12 AVENUE,40.6314949,-74.00295009999999,40.6301639,-74.0007419
22,19813,86th ST,19th AVE,20th AVE,40.605946,-74.00047719999999,40.6046104,-73.99827189999999
23,19991,18 AVENUE,72 STREET,73 STREET,40.61513100000001,-73.99422299999999,40.61456460000001,-73.9947953
24,20157,65 STREET,18 AVENUE,19 AVENUE,40.619131,-73.990182,40.617852,-73.988066
25,20278,60 STREET,18 AVENUE,19 AVENUE,40.622022,-73.987257,40.620712,-73.985087
26,20335,AVE P,W 10th ST,W 11th ST,40.6076639,-73.9834632,40.6075656,-73.98440169999999
27,20340,BAY PKWY,72nd ST,73rd ST,40.6098915,-73.9855594,40.6093338,-73.9861337
28,20561,7 AVENUE,65 STREET,66 STREET,40.6339632,-74.0147382,40.6335353,-74.0155872
29,21028,3 AVENUE,29 STREET,28 STREET,40.7425772,-73.9804096,40.7419747,-73.98086889999999
30,21033,3 AVENUE,28 STREET,29 STREET,40.7419747,-73.98086889999999,40.7425772,-73.9804096
31,21110,5 AVENUE,24 STREET,36 STREET,40.659669,-73.99516899999999,40.7497295,-73.9836386
32,21142,51 STREET,13 AVENUE,New Utrecht Avenue,40.633906,-73.9932783,40.6349248,-73.994962
33,21148,50 STREET,13 AVENUE,New Utrecht Avenue,40.6344706,-73.9927072,40.6357624,-73.99485059999999
34,21327,39 STREET,12 AVENUE,13 AVENUE,40.641952,-73.9884957,40.6406102,-73.9862871
35,21331,37 STREET,12 AVENUE,13 AVENUE,40.6430826,-73.9873234,40.6417429,-73.9851098
36,21399, FT HAMILTON PARKWAY , 36 STREET  , CHESTER AVENUE ,40.64456630000001,-73.98833739999999,40.6457691,-73.9852877
37,22023, COLUMBIA STREET , DE GRAW STREET , KANE STREET  ,40.6857541,-74.0023487,40.6877654,-74.0013788
38,22219, CLINTON STREET , SACKETT STREET , UNION STREET  ,40.6836235,-73.9975443,40.6829554,-73.997863
39,22227, HICKS STREET  , KANE STREET  , DE GRAW STREET ,40.6873154,-74.0000422,40.6853554,-74.0009927
40,22379, 3 STREET  , SMITH STREET  , HOYT STREET  ,40.678837,-73.995794,40.677841,-73.993725
41,22409,COURT STREET,DE GRAW STREET,SACKETT STREET,40.683741,-73.995232,40.6830587,-73.995536
42,26001,AVE U,E 16th ST,E 17th ST,40.5989303,-73.9554758,40.5990365,-73.9545133
43,22806,3 AVENUE,BALTIC STREET,BUTLER STREET,40.68151599999999,-73.98329100000001,40.6808843,-73.98372359999999
44,22921,3 AVENUE,DEAN STREET,PACIFIC STREET,40.6840516,-73.9815715,40.684696,-73.98114389999999
45,22924, ATLANTIC AVENUE , 3 AVENUE  , 4 AVENUE  ,40.6853307,-73.9807141,40.6843687,-73.97828870000001
46,23057,BROADWAY  ,BEAVER STREET  ,MORRIS STREET  ,40.7050369,-74.0133216,40.7058927,-74.01328649999999
47,23061,TRINITY PL,EDGER ST,RECTOR PL,40.7069121,-74.0135528,40.7077686,-74.0129491
48,23207,LIBERTY STREET,BROADWAY,LIBERTY PLACE,40.7091503,-74.0105511,40.7087698,-74.00964929999999
49,23344,FULTON STREET,DUTCH STREET,NASSAU STREET,40.7098694,-74.00702540000002,40.7102288,-74.0077407
50,23396,CHURCH STREET , DUANE STREET  , READE STREET  ,40.716003,-74.0071177,40.7154342,-74.0075462
51,23407,BROADWAY,DUANE STREET,THOMAS STREET,40.7152403,-74.0054243,40.7157509,-74.0049878
52,23408, CHAMBERS STREET , BROADWAY  , CENTRE STREET  ,40.714163,-74.00629479999999,40.7131383,-74.0040745
53,23756,MADISON STREET,CATHERINE STREET,ST JAMES PLACE,40.7120833,-73.9969397,40.7117748,-73.99969999999999
54,23936, CATHERINE STREET , MONROE STREET  , CATHERINE SLIP  ,40.7113649,-73.99679189999999,40.7113649,-73.99679189999999
55,23942,MARKET STREET,CHERRY STREET,SOUTH STREET,40.7105627,-73.99412020000001,40.7095089,-73.9940261
56,24768,SURF AVE,JONES WALK,W 10th ST,40.5754978,-73.9787874,40.5754425,-73.97791099999999
57,24988,NEPTUNE AVE,SHEEPSHEAD BAY RD,W 12th ST,40.57971999999999,-73.9771331,40.5794348,-73.9796066
58,25654,CONEY ISLAND AVE,AVE S,AVE T,40.6030108,-73.9615456,40.6005864,-73.961362
59,26096,AVE Z,E 15th ST,E 16th ST,40.5879647,-73.9543439,40.5880664,-73.9534175
60,26932,CONEY ISLAND AVENUE,FOSTER AVENUE,NEWKIRK AVENUE,40.6322831,-73.9667692,40.63373139999999,-73.9671881
61,26962,AVE P,CONEY ISLAND AVE,E 12th ST,40.6099786,-73.9624499,40.610094,-73.96136940000001
62,27017,AVENUE J,EAST 12 STREET,EAST 13 STREET,40.6248836,-73.96415019999999,40.6249641,-73.9632486
63,27106,KINGS HWY,E 15th ST,E 16th ST,40.60873730000001,-73.95827849999999,40.6091173,-73.9574004
64,27121,AVE N ,E 15th ST,E 16th ST,40.6156136,-73.95958399999999,40.6157144,-73.95864499999999
65,27139,AVE M ,E 15th ST,ELM AVE,40.618011,-73.960042,40.6180475,-73.9596723
66,27344,OCEAN AVE,AVE R,AVE S,40.6063501,-73.9527377,40.6040255,-73.9523028
67,27462,BEDFORD AVE,AVE R,QUENTIN RD,40.6068721,-73.94795710000001,40.609333,-73.94842179999999
68,27567,NOSTRAND AVE,AVE P,QUENTIN RD,40.6126779,-73.9441721,40.6101847,-73.9437026
69,28015,CONEY ISLAND AVE,CATON AVE,CHURCH AVE,40.6482598,-73.9714142,40.6463875,-73.9708452
70,28069,CORTELYOU ROAD,EAST 11 STREET,EAST 12 STREET,40.6412679,-73.9639359,40.7285905,-73.9797262
71,49572, JAMAICA AVENUE , AUTUMN AVENUE , EUCLID AVENUE  ,40.69027759999999,-73.8717138,40.6886804,-73.8754612
72,28103,CHURCH AVE,E 13th ST,E 14th ST,40.7269987,-73.9746965,40.6420511,-73.9812283
73,28234,CATON AVE ,E 18th ST,ST PAUL'S PL,40.6513604,-73.9634599,40.65153129999999,-73.96303069999999
74,28262,OCEAN AVE,CATON AVE,CROOKE AVE,40.6521733,-73.9613973,40.6531822,-73.96160139999999
75,28288,OCEAN AVENUE,FARRAGUT ROAD,GLENWOOD ROAD,40.6352905,-73.95819999999999,40.632903,-73.95776339999999
76,28370,FLATBUSH AVE ,CATON AVE ,CLARKSON AVE,40.6529283,-73.9593266,40.6548502,-73.9597047
77,28403,FARRAGUT ROAD,BEDFORD AVENUE,EAST 24 STREET,40.6358206,-73.9534225,40.6357072,-73.954393
78,28612,ROGERS AVE,LENOX RD,LINDEN BLVD,40.65397859999999,-73.9528232,40.652482,-73.952659
79,28620,ROGERS AVE,CLARKSON AVE,LENOX RD,40.6552408,-73.9529627,40.65397859999999,-73.9528232
80,28637,FLATBUSH AVENUE,EAST 28 STREET,EAST 29 STREET,40.6349814,-73.94991019999999,40.6339431,-73.94884880000001
81,28732,NOSTRAND AVE,LENOX RD ,LINDEN BLVD,40.6541536,-73.9499329,40.6526574,-73.94977750000001
82,28845,CHURCH AVE,E 37th ST,BROOKLYN AVE,40.6511041,-73.94282319999999,40.6511159,-73.94381039999999
83,28855,LINDEN BLVD,BROOKLYN AVE,E 37th ST,40.6529731,-73.9439991,40.65303,-73.9430349
84,28923,5 AVENUE,DE GRAW STREET,DOUGLASS STREET,40.677681,-73.9795997,40.678312,-73.9791702
85,28934,6 AVENUE,ST JOHN'S PLACE,STERLING PLACE,40.6774254,-73.9766092,40.6780626,-73.9761776
86,28973,FLATBUSH AVENUE,4 AVENUE,ROCKWELL PLACE,40.6849166,-73.9780674,40.6880932,-73.9794683
87,28976, ASHLAND PLACE , 4 AVENUE  , LAFAYETTE AVENUE ,40.672933,-73.9861256,40.6868179,-73.97822339999999
88,28997,PROSPECT PARK WEST,2 STREET,3 STREET,40.6688306,-73.973329,40.6682162,-73.973828
89,29014,8 AVENUE,CARROLL STREET,GARFIELD PLACE,40.672222,-73.97382,40.671172,-73.9747017
90,29030,7 AVENUE,LINCOLN PLACE,ST JOHN'S PLACE,40.675729,-73.97458979999999,40.6764516,-73.97410579999999
91,29470,CLASSON AVE,GATES AVE,PUTNAM AVE,40.6852182,-73.95926530000001,40.6830185,-73.9588528
92,29662,BEDFORD AVE,PROSPECT PL,ST MARK'S AVE,40.6745036,-73.9537084,40.6753892,-73.9533723
93,29668,ROGERS AVE,LINCOLN PL,ST JOHN'S PL,40.6708992,-73.9531942,40.6717833,-73.9531148
94,29696,BEDFORD AVE,HANCOCK ST,JEFFERSON AVE,40.68212159999999,-73.9536626,40.6828564,-73.95380999999999
95,29843,BROOKLYN AVE,ST JOHN'S PL,LINCOLN PL,40.6713431,-73.9447976,40.6704979,-73.944872
96,30633,LAFAYETTE AVE,CLASSON AVE,FRANKLIN AVE,40.6888847,-73.9600183,40.6892468,-73.95697129999999
97,30645,MYRTLE AVE,CLASSON AVE,TAAFFE AVE,40.694011,-73.96109299999999,40.69411040000001,-73.960156
98,30790,BEDFORD AVE,METROPOLITAN AVE,NORTH 1st ST,40.7153113,-73.9604365,40.7148883,-73.96088720000002
99,31072,MONTROSE AVE,UNION AVE,LORIME ST ,40.7066554,-73.9503883,40.7068502,-73.9482056
100,31148,METROPOLITAN AVE,UNION AVE,LORIMER ST,40.714075,-73.9516455,40.7140636,-73.9493933
101,31248,MESEROLE STREET,LEONARD  ST,LORIMER ST ,40.707754,-73.9465999,40.707593,-73.9483056
102,31308,MYRTLE AVE,THROOP AVE,TOMPKINS AVE,40.696031,-73.94352599999999,40.695706,-73.9463658
103,31559,WEST BROADWAY,DUANE STREET,THOMAS STREET,40.7166018,-74.0083762,40.7171283,-74.0079586
104,31890,HUDSON STREET,CHARLTON STREET,VANDAM STREET,40.7273316,-74.0073345,40.7266087,-74.0074515
105,32031,HUDSON STREET,GANSEVOORT STREET,HORATIO STREET,40.7394118,-74.0053906,40.7387624,-74.0054984
106,32066,CORTLANDT ALLEY,WALKER STREET,WHITE STREET,40.7183168,-74.00183969999999,40.71769279999999,-74.0023458
107,66455,56th RD,43rd ST,48th ST,40.7287902,-73.926143,40.726213,-73.920515
108,32095,CANAL STREET,BROADWAY,CORTLANDT ALLEY,40.719393,-74.0018987,40.71895689999999,-74.00128629999999
109,32126,AVENUE OF THE AMERICAS ,VANDAM STREET , SPRING STREET  ,40.7262643,-74.0037617,40.7255273,-74.00405769999999
110,32137,WEST BROADWAY,PRINCE STREET,SPRING STREET,40.7257812,-74.000907,40.7245656,-74.0019192
111,32274, 8 AVENUE  , HORATIO STREET , WEST 4 STREET  ,40.738756,-74.003446,40.7382921,-74.00397459999999
112,32327,GRAND STREET,BROADWAY,CROSBY STREET,40.7208716,-74.00063349999999,40.7204318,-73.9998628
113,32361,BROOME STREET,BROADWAY,CROSBY STREET,40.7217896,-73.9998669,40.7214268,-73.9990327
114,32364,BROADWAY,PRINCE STREET,SPRING STREET,40.7242289,-73.9977901,40.7230414,-73.99878609999999
115,32366,SPRING STREET,BROADWAY,CROSBY STREET,40.7230414,-73.99878609999999,40.7226532,-73.9979869
116,32443,7 AVENUE,WEST 12 STREET,WEST 13 STREET,40.7372245,-74.0006804,40.7378694,-74.0002019
117,32449,AVENUE OF AMERICAS,WEST 11 STREET,WEST 12 STREET,40.735378,-73.9982757,40.7360172,-73.997813
118,32585,E 4TH ST,BROADWAY ,LAFAYETTE ST,40.7284285,-73.9942583,40.7278625,-73.9931345
119,32618,5 AVENUE,EAST 11 STREET,EAST 12 STREET,40.7340256,-73.9950724,40.7346736,-73.9945869
120,32698, BOWERY  , EAST HOUSTON STREET , PRINCE STREET  ,40.7240419,-73.99254309999999,40.7223341,-73.9931936
121,32706,CHRYSTIE STREET,2 AVENUE,DELANCEY STREET,40.7237544,-73.991033,40.7199205,-73.9929172
122,32775,4 AVENUE,EAST 9 STREET,EAST 10 STREET,40.7305472,-73.99049219999999,40.7312538,-73.9903946
123,32787,BROADWAY,EAST 11 STREET,EAST 12 STREET,40.73244589999999,-73.991281,40.733201,-73.9911174
124,32807,EAST 14 STREET,4 AVENUE,BROADWAY,40.7344478,-73.9899078,40.7348005,-73.9907326
125,32932,3 AVENUE,EAST 12 STREET,EAST 13 STREET,40.73197529999999,-73.9881577,40.7326097,-73.9876848
126,33012,5 AVENUE,BROADWAY,EAST 26 STREET,40.7423132,-73.98901769999999,40.743444,-73.9882085
127,33064,CLINTON STREET,DELANCEY STREET,RIVINGTON STREET,40.7176254,-73.98582549999999,40.7190891,-73.9850731
128,33115,2 AVENUE,EAST 12 STREET,EAST 13 STREET,40.7310008,-73.9859207,40.7316589,-73.9854323
129,33121,1 AVENUE,EAST 12 STREET,EAST 13 STREET,40.7300043,-73.9835255,40.7306517,-73.9830602
130,33184,LEXINGTON AVENUE,EAST 26 STREET,EAST 27 STREET,40.7414154,-73.98336669999999,40.7420182,-73.98292219999999
131,33196,PITT STREET,DELANCEY STREET,STANTON STREET,40.7166546,-73.9832613,40.7194763,-73.981943
132,33255,AVENUE B,EAST 11 STREET,EAST 12 STREET,40.7274569,-73.97945530000001,40.72809770000001,-73.9789887
133,33305,3 AVENUE,EAST 27 STREET,EAST 28 STREET,40.7413335,-73.9813051,40.7419747,-73.98086889999999
134,33411,11 AVENUE,WEST 27 STREET,WEST 28 STREET,40.7514154,-74.0051723,40.7520323,-74.0047257
135,33471,10 AVENUE,WEST 27 STREET,WEST 28 STREET,40.7502166,-74.0023398,40.7508373,-74.00188519999999
136,33547,9 AVENUE,WEST 25 STREET,WEST 26 STREET,40.7477802,-74.00043409999999,40.7484192,-73.99999389999999
137,33612,11 AVENUE,WEST 43 STREET,WEST 44 STREET,40.7615124,-73.9978323,40.7621338,-73.99738850000001
138,33645,8 AVENUE,WEST 26 STREET,WEST 27 STREET,40.7472041,-73.9970975,40.7478166,-73.9966529
139,33652,7 AVENUE,WEST 27 STREET,WEST 28 STREET,40.74662319999999,-73.9938171,40.7472392,-73.9933645
140,33758,10 AVENUE,WEST 45 STREET,WEST 46 STREET,40.7615582,-73.9940582,40.7621935,-73.99361259999999
141,33796,AVENUE OF THE AMERICAS,WEST 26 STREET,WEST 27 STREET,40.7447955,-73.99142189999999,40.745418,-73.99096229999999
142,33848,9 AVENUE,WEST 45 STREET,WEST 46 STREET,40.7603606,-73.9912374,40.7609837,-73.9907751
143,33879,BROADWAY,WEST 27 STREET,WEST 28 STREET,40.7445271,-73.98887289999999,40.7452961,-73.9887403
144,33886,5 AVENUE,EAST 27 STREET,EAST 28 STREET,40.7440656,-73.98775400000001,40.7446868,-73.9873046
145,33891,WEST 29 STREET,5 AVENUE,BROADWAY,40.7452995,-73.98684109999999,40.7460445,-73.9885838
146,33959,8 AVENUE,WEST 45 STREET,WEST 46 STREET,40.7591625,-73.988378,40.759791,-73.987927
147,34000,MADISON AVENUE,EAST 27 STREET,EAST 28 STREET,40.7433809,-73.9861572,40.7440111,-73.98569169999999
148,34013,WEST 30 STREET,5 AVENUE,BROADWAY,40.7459153,-73.9864107,40.7467947,-73.9884889
149,34027,WEST 34 STREET,5 AVENUE,AVE OF THE AMER,40.7484394,-73.9845729,40.7497819,-73.9877534
150,34073,7 AVENUE,BROADWAY,WEST 46 STREET,40.7577845,-73.98568019999999,40.75858059999999,-73.9850687
151,34124,COLUMBUS AVENUE,WEST 61 STREET,WEST 62 STREET,40.77048,-73.98385499999999,40.7711301,-73.9834034
152,34170,WEST 39 STREET,5 AVENUE,AVE OF THE AMER,40.7515863,-73.9822815,40.7529301,-73.98548219999999
153,34188,AVENUE OF THE AMERICAS,WEST 45 STREET,WEST 46 STREET,40.7567653,-73.98270230000001,40.7573938,-73.98225029999999
154,34257,CENTRAL PARK WEST,WEST 61 STREET,COLUMBUS CIRCLE,40.7692978,-73.9810471,40.7682791,-73.9814387
155,34340,AMSTERDAM AVENUE,WEST 61 STREET,WEST 62 STREET,40.7716714,-73.9866972,40.7723021,-73.9862412
156,34512,AMSTERDAM AVENUE,WEST 73 STREET,WEST 74 STREET,40.7793005,-73.9811343,40.7799331,-73.980677
157,34607,AVENUE C,EAST 11 STREET,EAST 12 STREET,40.72647420000001,-73.9770989,40.7271073,-73.9766362
158,34654,1 AVENUE,EAST 26 STREET,EAST 27 STREET,40.7387856,-73.9771481,40.7393956,-73.9766952
159,34659,2 AVENUE,EAST 27 STREET,EAST 28 STREET,40.74042379999999,-73.9790846,40.74104,-73.97865259999999
160,35041,COMMERCIAL ST,CLAY ST,BOX ST,40.7363695,-73.95832109999999,40.737159,-73.95688310000001
161,35178,ASH ST,COMMERCIAL ST,MC GUINNESS,40.7380024,-73.9553589,40.7382029,-73.9529467
162,35252,BEDFORD AVE,LORIMER ST,NORTH 12th ST,40.7235178,-73.9516661,40.7205975,-73.9547554
163,35257,DRIGGS AVE,LORIMER ST,NORTH 12th ST,40.7217156,-73.9506335,40.7197924,-73.9534724
164,35672,GREENPOINT AVE,N. HENRY ST,PROVOST ST,40.7320844,-73.9445901,40.7306724,-73.9492191
165,35806, 5 AVENUE  , EAST 46 STREET  , EAST 47 STREET  ,40.7560369,-73.979021,40.7566626,-73.97855539999999
166,35960, 3 AVENUE  , EAST 46 STREET  , EAST 47 STREET  ,40.7533249,-73.9725945,40.7539542,-73.97214749999999
167,36023,5 AVENUE,WEST 59 STREET,WEST 60 STREET,40.7642832,-73.9730166,40.76492409999999,-73.9725552
168,36112, 2 AVENUE  , EAST 46 STREET  , EAST 47 STREET  ,40.752367,-73.9703354,40.7529921,-73.96987969999999
169,36162,MADISON AVENUE,EAST 59 STREET,EAST 60 STREET,40.7635936,-73.97142869999999,40.7642243,-73.9709714
170,36272, 3 AVENUE  , EAST 59 STREET  , EAST 60 STREET  ,40.7615833,-73.9665806,40.7621826,-73.9661193
171,36403, 1 AVENUE  , EAST 60 STREET  , EAST 61 STREET  ,40.7602427,-73.96151119999999,40.7608662,-73.9610606
172,36574, 3 AVENUE  , EAST 73 STREET  , EAST 74 STREET  ,40.7704307,-73.9601096,40.7710693,-73.95966039999999
173,36579, 2 AVENUE  , EAST 73 STREET  , EAST 74 STREET  ,40.7695019,-73.957898,40.77012,-73.9574092
174,36674, 1 AVENUE  , EAST 73 STREET  , EAST 74 STREET  ,40.7684948,-73.9555015,40.7691234,-73.95504559999999
175,36803,YORK AVENUE,EAST 74 STREET,EAST 75 STREET,40.7681765,-73.95279409999999,40.7688161,-73.95232469999999
176,37189,CENTRAL PARK WEST,WEST 74 STREET,WEST 75 STREET,40.7775456,-73.9750068,40.7781814,-73.9745414
177,37277,WEST END AVENUE,WEST 97 STREET,WEST 98 STREET,40.7959402,-73.9727125,40.796575,-73.9722692
178,37362,AMSTERDAM AVE,WEST 99 ST  , WEST 100 ST ,40.795988,-73.96895599999999,40.7966173,-73.9684943
179,37374, 5 AVENUE  , EAST 73 STREET  , EAST 74 STREET  ,40.7731481,-73.9665404,40.7737839,-73.966075
180,37916,3 AVE  , EAST 99 ST  , EAST 100 ST  ,40.7871366,-73.9479201,40.7877698,-73.9474512
181,38035, 1 AVE  , EAST 99 ST  , EAST 97 ST  ,40.7851691,-73.9433181,40.7839524,-73.9442217
182,38055, 2 AVE  , EAST 99 ST  , EAST 100 ST  ,40.7862118,-73.94574519999999,40.7868424,-73.94527719999999
183,38361,AMSTERDAM AVE , WEST 118 ST , WEST 119 ST,40.80812,-73.960106,40.8087566,-73.9596542
184,38489,MANHATTAN AVENUE,WEST 119 STREET,WEST 120 STREET,40.806966,-73.955411,40.8076104,-73.954949
185,38619, 8 AVE  , WEST 123 ST , WEST 124 ST ,40.8088725,-73.9521231,40.80949,-73.951664
186,38868,WEST 135 STREET,8 AVENUE,EDGECOMBE AVENUE,40.81651919999999,-73.9465432,40.81708450000001,-73.94791649999999
187,39011, AMSTERDAM AVE , WEST 147 ST , WEST 148 ST,40.8265254,-73.94667369999999,40.8271476,-73.9462162
188,41000,AVENUE M,EAST 45 STREET,EAST 46 STREET,40.6210537,-73.93195899999999,40.621116,-73.93102379999999
189,41034,AVENUE J,EAST 46 STREET,SCHENECTADY AVENUE,40.627928,-73.9317445,40.6279898,-73.9307752
190,41312, AVENUE U  , EAST 56 STREET  , PEARSON STREET ,40.6120815,-73.91899180000001,40.612575,-73.91825159999999
191,41546, AVENUE U  , EAST 66 STREET  , EAST 67 STREET  ,40.6173156,-73.9109434,40.6177833,-73.9102448
192,41667, AVENUE U  , EAST 71 STREET  , EAST 72 STREET  ,40.61982709999999,-73.9074425,40.620301,-73.90673679999999
193,41720,AVENUE D,BROOKLYN AVENUE,EAST 37 STREET,40.6413087,-73.9427477,40.6413645,-73.9417866
194,41736,CLARENDON ROAD,BROOKLYN AVENUE,EAST 37 STREET,40.6436072,-73.942996,40.6436749,-73.94202829999999
195,41813,ALBANY AVENUE,FARRAGUT ROAD,GLENWOOD ROAD,40.6369177,-73.9375112,40.6346452,-73.9372722
196,41864,ALBANY AVE,LENOX RD ,LINDEN BLVD,40.6547923,-73.9394248,40.6532651,-73.9392596
197,42387,GLENWOOD ROAD,EAST 59 STREET,RALPH AVENUE,40.6338533,-73.9198018,40.634521,-73.9188009
198,42542,FLATLANDS AVENUE,EAST 78 STREET,EAST 79 STREET,40.6345555,-73.91476,40.6350033,-73.9140618
199,42955,ALBANY AVE,MIDWOOD ST,RUTLAND RD,40.6607888,-73.9398118,40.6600772,-73.9397297
200,43074,ALBANY AVE,LINCOLN PL,ST JOHN'S PL,40.67018849999999,-73.9393405,40.6710418,-73.9392515
201,43527, MAC DOUGAL STREET , FULTON STREET  , RALPH AVENUE  ,40.6788676,-73.9216476,40.6788676,-73.9216476
202,43660, HOWARD AVENUE , BAINBRIDGE STREET , CHAUNCEY STREET ,40.6822549,-73.91987809999999,40.6815208,-73.9197243
203,48370, HEGEMAN AVENUE , FOUNTAIN AVENUE , LOGAN STREET  ,40.668029,-73.8728529,40.667665,-73.873688
204,49090, VERMONT PLACE , HIGHLAND BOULEVARD , JACKIE ROBINSON PKWY ,40.6852446,-73.88815319999999,40.6908109,-73.8903758
205,49505, 73 PLACE  , 78 AVENUE  , COOPER AVENUE ,40.704207,-73.8761802,40.7056201,-73.8767399
206,51933,PITKIN AVE ,95th ST,96th ST,40.672429,-73.84118300000002,40.6725694,-73.840251
207,51982,LIBERTY AVE,98th ST,99th ST,40.680914,-73.8413461,40.6810797,-73.8404778
208,52940,JAMAICA AVE,101st ST,102nd ST,40.6950403,-73.84644639999999,40.6951656,-73.84541779999999
209,54575,SOUTH CONDUIT AVE,COHANCY ST,NASSAU EXPY,40.6671283,-73.8346293,40.6694983,-73.8461406
210,55804,111 AVE,142 STREET,143 STREET,40.685838,-73.80254599999999,40.68626860000001,-73.8012803
211,55805, BRINKERHOFF AVE, 111 AVE , 143 STREET  ,40.6859359,-73.80225399999999,40.6864541,-73.80155189999999
212,56117,KEW GARDENS ROAD,80 ROAD,UNION TURNPIKE,40.7136063,-73.8303652,40.7141088,-73.83113929999999
213,56804, VAN WYCK EXPRESSWAY , 102 AVENUE  ,W 232nd ST,40.6934308,-73.8110363,40.7016578,-73.8165835
214,56878, ARCHER AVE, 143 STREET  , 144 PLACE  ,40.6995881,-73.8106061,40.6998476,-73.8097263
215,56994, LIBERTY AVE, BRISBIN STREET  , LLOYD ROAD  ,40.6936458,-73.80747389999999,40.6935391,-73.8077813
216,57167,LAKEWOOD AVE,INWOOD STREET,LIVERPOOL STREET,40.690019,-73.803232,40.6916783,-73.8017742
217,57188, WALTHAM STREET , 101 AVE , LIBERTY AVE,40.6957187,-73.8057488,40.6954179,-73.8052951
218,57189, 101 AVE , 146 STREET  , WALTHAM STREET ,40.69594970000001,-73.8049766,40.6957187,-73.8057488
219,57192, LIBERTY AVE, 101 AVE , WALTHAM STREET ,40.6960651,-73.8046789,40.6954179,-73.8052951
220,62171,CENTRAL AVE,SAGE ST,VIRGINIA ST,40.6094198,-73.74612820000002,40.6096607,-73.74559099999999
221,64564, LINDEN BLVD , 198 STREET  , 199 STREET  ,40.693971,-73.753958,40.694213,-73.753086
222,65634,CROSS ISLAND PKWY SR, 107 AVENUE  , 115 AVENUE  ,40.7076714,-73.7279768,40.6971885,-73.72751769999999
223,65745,HUNGRY HARBOR RD,148th ST,262nd PL,40.654142,-73.72638429999999,40.6536263,-73.7253606
224,66883,MAURICE AVE,55th DR,56th DR,40.7260554,-73.90892099999999,40.7241852,-73.9113462
225,67724,39th ST,NORTHERN BLVD,SKILLMAN AVE,40.7523729,-73.9244137,40.7474268,-73.9254785
226,67971,48th ST,37th AVE,NORTHERN BLVD,40.7511787,-73.9151985,40.7536463,-73.9145175
227,69154,8 AVE  , WEST 147 ST , WEST 148 ST ,40.8241399,-73.940969,40.8247553,-73.9405156
228,69185,3 AVE  , EAST 123 ST  , EAST 124 ST  ,40.8023937,-73.936767,40.8030321,-73.936328
229,69276,2 AVE  , EAST 124 ST  , EAST 123 ST ,40.8019702,-73.93416479999999,40.8014576,-73.9345403
230,69589,EAST 135 STREET ,CANAL STREET WEST,PARK AVENUE ,40.81088099999999,-73.9308423,40.81159239999999,-73.9349024
231,69637,EAST 138 STREET ,GRAND CONCOURSE,PARK AVENUE ,40.8133437,-73.9303311,40.8140538,-73.9348394
232,69976, MORRIS AVENUE , EAST 153 STREET  , EAST 156 STREET  ,40.8201983,-73.92148730000001,40.8220708,-73.9203943
233,70873,AMSTERDAM AVE , WEST 164 ST , WEST 165 ST ,40.8372288,-73.9388591,40.8378918,-73.93837289999999
234,70892,AUDUBON AVE , WEST 166 ST , WEST 167 ST,40.8392969,-73.9392335,40.8399135,-73.9388111
235,70931,AUDUBON AVE , WEST 172 ST , WEST 173 ST ,40.84293359999999,-73.9365883,40.84356,-73.9361394
236,70939,BROADWAY  , WEST 174 ST , WEST 175 ST ,40.8454548,-73.9386834,40.8462019,-73.9384558
237,71072,AMSTERDAM AVE , WEST 171 ST , WEST 172 ST ,40.8417048,-73.9355862,40.8423036,-73.9351581
238,71591,SHERIDAN AVENUE,EAST 156 STREET ,EAST 161 STREET ,42.5314524,-79.2382167,40.8264031,-73.92116949999999
239,71729,SHERIDANA AVENUE,EAST 161 STREET ,EAST 162 STREET ,40.8264031,-73.92116949999999,40.827214,-73.9207028
240,72026, JEROME AVENUE , EAST 172 STREET  , EAST MT EDEN AVENUE ,40.8423341,-73.9161926,40.8443466,-73.9147479
241,72477,WADSWORTH AVENUE,WEST 188 STREET,WEST 189 STREET,40.85421290000001,-73.9317763,40.8548266,-73.931328
242,72596,DYCKMAN STREET,VERMILYEA AVENUE,SHERMAN AVENUE,40.8645387,-73.9266358,40.86358329999999,-73.92602029999999
243,72608, BROADWAY  ,  ACADEMY STREET,  DYCKMAN STREET ,40.866344,-73.9250118,40.8655205,-73.9273104
244,72860,CEDAR AVENUE , WEST 179 STREET , WEST FORDHAM ROAD ,40.855895,-73.9172253,40.8617469,-73.9118104
245,73220,HENRY HUDSON PKWY,INDEPENDENCE AVE ,W 232nd ST,40.8808392,-73.9191025,40.8846196,-73.9149079
246,73294,HENRY HUDSON PKWY,W 235th ST,W 236th ST,40.8861645,-73.91302759999999,40.8870881,-73.91229539999999
247,76391,32nd AVE,85th ST,86th ST,40.7579854,-73.88295409999999,40.7580867,-73.88202199999999
248,77328, LONGWOOD AVENUE , EAST 160 STREET  , HEWITT PLACE  ,40.8194513,-73.900892,40.8186044,-73.90005649999999
249,77424, EAST 163 STREET  , INTERVALE AVENUE , ROGERS PLACE  ,40.820999,-73.8969015,40.82100399999999,-73.8978791
250,78404, EAST TREMONT AVENUE, ANTHONY AVENUE , EAST 176 STREET  ,40.8486926,-73.9032682,40.8477745,-73.9016358
251,80377, CROTONA AVENUE , EAST 187 STREET  , EAST 189 STREET  ,40.8539198,-73.8836077,40.8561303,-73.88252109999999
252,80491, JEROME AVENUE , EAST MOSHOLU PARKWAY NORTH ,  MOSHOLU PARKWAY ,40.8804682,-73.88386080000001,40.8790999,-73.8854243
253,81165, BROADWAY  ,  WEST 259 STREET ,   WEST 260 STREET ,40.906339,-73.89649299999999,40.907507,-73.896546
254,81384, WEBSTER AVENUE , EAST 233 STREET  , EAST GUN HILL ROAD ,40.89538659999999,-73.8635508,40.8786596,-73.8716653
255,86360, PAULDING AVENUE , LYDIG AVENUE    , NEILL AVENUE   ,40.8535943,-73.859488,40.8523444,-73.8585222
256,87423,HUTCHINSON RIVER PKWY , LAURIE AVENUE  , ST THERESA AVENUE ,40.8484086,-73.83591950000002,40.849677,-73.835801
257,87459,BOSTON ROAD  , BRONX PARK EAST  , PELHAM PARKWAY ,40.8558174,-73.86992409999999,40.856701,-73.8693195
258,88296,BOSTON ROAD  , FISH AVENUE  , WILSON AVENUE ,40.8758896,-73.8499015,40.8755018,-73.8506831
259,88927, WEBSTER AVENUE , EAST 233 STREET  ,EAST 234 STREET  ,40.89538659999999,-73.8635508,40.897392,-73.8626227
260,89610,EAST 241 STREET  ,  HILL AVENUE  ,MURDOCK AVENUE  ,40.902233,-73.8436767,40.9020242,-73.84458579999999
261,89865,JEWEL AVE,136 STREET,138 STREET,40.7282854,-73.8293956,40.7288684,-73.82753079999999
262,91313,UNION STREET,37 AVE,39 AVE,40.7624261,-73.8275136,40.7611136,-73.82688809999999
263,91529,SANFORD AVE,147 STREET,149 STREET,40.7597725,-73.8172876,40.7603659,-73.81508819999999
264,91535,ROOSEVELT AVE,147 STREET,149 STREET,40.7625592,-73.8185961,40.7631514,-73.81638219999999
265,93757, EAST 177 STREET  , HARDING AVENUE , LAWTON AVENUE ,34.1747774,-118.1017762,34.8159328,-102.3916914
266,94154, LAFAYETTE AVENUE , EAST 177 STREET  , HUTCHINSON RIVER PARKWAY ,40.8498297,-73.90719729999999,40.8249522,-73.8365779
267,97387,UNDERHILL AVE,53 AVE,58 AVE,41.2565334,-73.8071605,40.7438743,-73.7828774
268,95270,LEXINGTON AVENUE,121ST ST,120TH ST,40.801816,-73.93930859999999,40.8011855,-73.9397639
269,96042,HOMELAWN STREET,84 AVE,84 ROAD,40.7172843,-73.7922652,40.7172843,-73.7922652
270,97278,HOLLIS COURT BLVD,189 STREET,47 AVE,40.7527518,-73.79130409999999,40.7521626,-73.78934490000002
271,97492,35 AVE,200 STREET,CROCHERON AVE,40.7648115,-73.7868062,40.7640222,-73.7884681
272,97537,56 AVE,194 STREET,195 STREET,40.745429,-73.7837916,40.7456751,-73.7828937
273,98876,26 AVE,200 STREET,202 STREET,40.7742403,-73.7916386,40.7746871,-73.78985
274,101614,MARYLAND RD,DOUGLASTON PKWY,HANFORD ST,40.761027,-73.742342,40.76068739999999,-73.74408559999999
275,101855,MARATHON PKWY,DEEPDALE AVE,RUSHMORE AVE,40.7645581,-73.7352798,40.7652155,-73.7356432
276,102036,MARATHON PKWY,61 AVE,63 AVE,40.7569951,-73.7296387,40.75567400000001,-73.7287092
277,105624,FINGERBOARD ROAD,CLEVELAND PLACE,COLUMBIA AVENUE,40.6030331,-74.06952609999999,40.601916,-74.0713964
278,106931,WEST 155 ST,ST NICHOLAS AVE,EDGECOMBE AVE,40.8308955,-73.9413759,40.8301896,-73.9396804
279,107111, SOUTHERN BOULEVARD , ALDUS STREET  , EAST 163 STREET  ,40.8230847,-73.8918375,40.8210069,-73.89159219999999
280,108388,ARTHUR KILL ROAD,ENGLEWOOD AVENUE,SHARROTTS ROAD,40.5339297,-74.2366787,40.5383659,-74.2373957
281,108716,1 AVE  , EAST 120 ST  , EAST 124 ST  ,40.7986749,-73.9334714,40.8009838,-73.9317793
282,109335,FLUSHING AVE,THORNTON ST,WHIPPLE ST,40.7004274,-73.944497,40.700212,-73.94633379999999
283,109816,10 AVENUE,67 STREET,68 STREET,40.628812,-74.009338,40.628252,-74.009919
284,110262,GLEN STREET,BLOOMFIELD AVENUE,FAHY AVE,40.81370039999999,-74.2172863,40.6205276,-74.169134
285,110445, BROADWAY  , GRANITE STREET , PILLING STREET  ,40.6818161,-73.90849709999999,40.68222799999999,-73.909267
286,110463,GRAND AVE,CATHERINE ST,OLIVE ST,40.712782,-73.937248,40.712489,-73.93846599999999
287,111224,AMSTERDAM AVE,WEST 167 ST,WEST 168 ST,40.8393421,-73.9373146,40.83989460000001,-73.936904
288,111646,NOSTRAND AVENUE,FARRAGUT ROAD,FOSTER AVENUE,40.6362702,-73.9480152,40.6386056,-73.94827459999999
289,112418,LITTLE CLOVE ROAD,CLOVE ROAD,ONEIDA AVENUE,40.6114204,-74.09862319999999,40.6110396,-74.0994704
290,112431,RICHMOND ROAD,BALTIC AVENUE,CLOVE ROAD,40.6070797,-74.0924028,40.6086402,-74.0909722
291,116416, LOUIS NINE  BOULEVARD, BOSTON ROAD  , EAST 170 STREET  ,40.8349316,-73.8940995,40.8334088,-73.8931048
292,120482,BLOOMINGDALE ROAD,MARISA CIRCLE,WOODROW ROAD,40.538312,-74.21771,40.5410998,-74.2177387
293,120618,CROPSEY AVE,7th AVE,14th AVE,40.60724,-74.01622859999999,40.6043496,-74.0107009
294,120740,COLUMBUS AVE,WEST 103 ST,WEST 100 ST,40.7969347,-73.96434119999999,40.7954774,-73.965616
295,121069, CROTONA AVENUE , CLAREMONT PARKWAY , CROTONA PARK NORTH ,40.8364832,-73.89776499999999,40.8421837,-73.8940882
296,121148, WEST GUN HILL ROAD , MOSHOLU PARKWAY ,WEST MOSHOLU PARKWAY NORTH ,40.8843773,-73.8871329,40.8836233,-73.8851471
297,126531,DRUMGOOLE ROAD WEST,ANNADALE ROAD,WATKINS AVENUE,40.5559488,-74.1761224,40.560025,-74.17334269999999
298,126961, COLONIAL ROAD , WAKEMAN PLACE , 68 STREET  ,40.6407684,-74.0291775,40.6382712,-74.0309149
299,127200,51 STREET,19 AVENUE,20 AVENUE,40.6257627,-73.9798278,40.62444199999999,-73.977616
300,129486,115 ROAD,205 STREET,FRANCIS LEWIS BLVD,40.698443,-73.748981,40.698857,-73.7473648
301,129650,VERNON BLVD,33rd RD,35th AVE,40.7668297,-73.9386347,40.76373359999999,-73.9414111
302,132595, WHITE PLAINS ROAD , EAST 215 STREET  , EAST 216 STREET  ,40.8805424,-73.86443030000001,40.8814407,-73.8639663
303,133984,7 AVE  , WEST 148 ST , WEST 149 ST ,40.8235218,-73.9375912,40.8241659,-73.9371341
304,135278,164 STREET,67 AVE,69 AVE,40.7349357,-73.8047691,40.7331044,-73.80507469999999
305,139555,PARK AVE,58th ST,59th ST,40.7623133,-73.9703509,40.7629496,-73.9698785
306,148948,SPRINGFIELD BLVD,115 ROAD,116 AVE,40.6996368,-73.742227,40.6978894,-73.7429594
307,150203,FRANCIS LEWIS BLVD,115 DRIVE,115 ROAD,40.6982095,-73.7470867,40.698857,-73.7473648
308,150671,ATLANTIC AVE,ALABAMA AVE,WILLIAMS AVE,40.6757074,-73.8997396,40.6754845,-73.9006618
309,150677, ATLANTIC AVENUE , HINSDALE STREET , WILLIAMS AVENUE ,40.6755228,-73.9016109,40.6754845,-73.9006618
310,151662,WOODHAVEN BLVD,97th AVE,101st ST,40.68594969999999,-73.8468704,40.6842585,-73.8460438
311,152665,ATLANTIC AVE,CLASSON AVE,NYCTA SUBWAY,40.6797687,-73.9582976,40.6834617,-73.9765824
312,152873,34th AVE,92nd ST,93rd ST,40.7546723,-73.87572399999999,40.7547729,-73.8747941
313,154280, GOWANUS EXPRESSWAY , 29 STREET  , 28 STREET  ,40.6668423,-74.11096599999999,40.6662572,-74.11145189999999
314,154613, ESPLANADE  , HAIGHT AVENUE  , LURTING AVENUE   ,40.8563575,-73.85791689999999,40.8557887,-73.8586332
315,154617, BOSTON ROAD  , EAST 176 STREET  , VYSE AVENUE  ,40.8392791,-73.8843323,40.8391575,-73.8846287
316,155609,BRADDOCK AVE,221 PLACE,221 STREET,40.7294682,-73.74069109999999,40.72975659999999,-73.74198919999999
317,155739,SPRINGFIELD BLVD,115 ROAD,116 AVE,40.6996368,-73.742227,40.6978894,-73.7429594
318,155745,SEAGRIT BLVD,BEACH 7th ST,BEACH 9th ST,40.596748,-73.74434,40.5965654,-73.74416409999999
319,155773,ATLANTIC AVE,97th ST,98th ST,40.6890487,-73.84593009999999,40.68930100000001,-73.8450456
320,155846,JAMAICA AVE,197 STREET,198 STREET,40.7134101,-73.76290259999999,40.7134795,-73.7611829
321,155864,11th ST,47th AVE,47th RD,40.7450399,-73.950829,40.7443299,-73.9509337
322,156336,MERRICK BLVD,111 AVE,111 ROAD,40.6944405,-73.7815128,40.6938662,-73.78088009999999
323,156689,JAMAICA AVE,CARPENTER AVE,WOODHULL AVE,40.7133991,-73.76118749999999,40.7108446,-73.77069019999999
324,157570,ATLANTIC AVE,LINCOLN AVE,SHERIDAN AVE,40.6824709,-73.8690444,40.6826137,-73.8680701
325,157598,4 AVENUE,28 STREET,29 STREET,40.6588265,-73.9998134,40.6582656,-74.0004019
326,157659,LINDEN BOULEVARD,AUTUMN AVENUE,LINCOLN AVENUE,40.6690956,-73.8665396,40.6692297,-73.8655536
327,157736,ORIENTAL BLVD,HASTINGS ST,GIRARD ST,40.5778539,-73.94446789999999,40.5777455,-73.945371
328,157900,FLATLANDS AVE,LOUISIANA AVE,MALTA ST,40.6511101,-73.8899466,40.6513891,-73.8896218
329,158132, ATLANTIC AVENUE , LINCOLN AVENUE , NICHOLS AVENUE ,40.6824709,-73.8690444,40.6827231,-73.8681868
330,158163,4 AVENUE,BUTLER STREET,DOUGLASS STREET,40.6799238,-73.9812572,40.679292,-73.9816855
331,158203, LINDEN BOULEVARD , HINSDALE STREET , SNEDIKER AVENUE ,40.6577394,-73.89705450000001,40.6574692,-73.8979506
332,158217,CROPSEY AVE,27th AVE,BAY 26th ST,40.5885024,-73.9899179,40.599247,-74.00144379999999
333,158368, EDWARD L GRANT HIGHWAY , NELSON AVENUE , PLIMPTON AVENUE ,40.8417757,-73.9224677,40.842704,-73.92286059999999
334,158578,PARK AVENUE SOUTH,EAST 26 STREET,EAST 27 STREET,40.7421166,-73.9850392,40.7426685,-73.9844854
335,169883,130 PL,30th PL,BERGEN RD,40.7476664,-73.9911523,40.6593084,-73.8107213
336,158582,BROADWAY  , WEST 148 ST , WEST 149 ST ,40.8284052,-73.9491615,40.82893989999999,-73.9485016
337,158683,EAST HOUSTON STREET,BROADWAY,CROSBY STREET,40.7253796,-73.9968145,40.7252756,-73.9958083
338,158764,7 AVE  , WEST 122 ST , WEST 123 ST,40.8070199,-73.9496581,40.8077161,-73.9493653
339,158858,BROADWAY,WEST 60 STREET,WEST 61 STREET,40.7689007,-73.98200469999999,40.76969769999999,-73.9820202
340,158964,LENOX AVE,WEST 123 ST,WEST 124 ST,40.8064483,-73.94635749999999,40.8070656,-73.9458978
341,158972,LENOX AVE,WEST 111 ST,WEST 112 ST,40.7988095,-73.9519552,40.7995081,-73.9516261
342,159002,7 AVE  , WEST 117 ST , WEST 118 ST ,40.8039446,-73.9521224,40.804585,-73.95167479999999
343,159082,BROADWAY  , WEST 98 ST  , WEST 99 ST  ,40.7960116,-73.970947,40.7966408,-73.97049129999999
344,159183,BROADWAY,WEST 74 STREET,WEST 75 STREET,40.780254,-73.98143739999999,40.7810664,-73.9813985
345,159216,PARK AVENUE,EAST 59 STREET,EAST 60 STREET,40.7629496,-73.9698785,40.7634977,-73.96923029999999
346,164301, ALLEN STREET  , DELANCEY STREET , RIVINGTON STREET ,40.7192517,-73.9902163,40.7205416,-73.9898582
347,164329,EAST 18 STREET,BROADWAY,PARK AVENUE SOUTH,40.7378063,-73.9901465,40.7371314,-73.9885317
348,164341,NORFOLK STREET,DELANCEY STREET,RIVINGTON STREET,40.7183877,-73.98738519999999,40.7196024,-73.98675349999999
349,165258,MEEKER AVE,LEONARD ST,WITHERS ST,40.7178439,-73.9483122,40.7169849,-73.9489538
350,167027,KINGS HIGHWAY,AVENUE I,AVENUE J,40.6302269,-73.9324828,40.6278877,-73.93249399999999
351,167454,ROCKAWAY AVENUE,HEGEMAN AVENUE,LINDEN BOULEVARD,40.6562588,-73.9073141,40.6546781,-73.9069066
352,174149, EAST 161 STREET  , GRAND CONCOURSE , SHERIDAN AVENUE ,40.8267198,-73.922624,40.8264031,-73.92116949999999
353,174218, EAST 165 STREET  , CARROLL PLACE  , GRAND CONCOURSE ,40.8305373,-73.91945150000001,40.8309382,-73.9205123
354,174566,HENRY HUDSON PKWY,FAIRFIELD AVE,W 232nd ST,40.8855419,-73.9131282,40.8846196,-73.9149079
355,176380, EAST 204 STREET   , GRAND CONCOURSE   , VALENTINE AVENUE    ,40.87464569999999,-73.88644959999999,40.87424,-73.88478049999999
356,176399,SOUTHERN BOULEVARD , CROTONA PARKWAY , EAST FORDHAM ROAD ,40.84906489999999,-73.8828709,40.85684029999999,-73.88079929999999
357,176426, CROTONA AVENUE , EAST FORDHAM ROAD , SOUTHERN BOULEVARD ,40.8573658,-73.8818926,40.8586671,-73.8809967
358,178157, ZEREGA AVENUE , BRUCKNER BOULEVARD , BRUCKNER EXPRESSWAY ,40.8277173,-73.84375829999999,40.8277173,-73.84375829999999
359,184562, GRAND CONCOURSE_MAIN , EAST 172 STREET  , EAST MT EDEN AVENUE ,28.9632263,-81.32785849999999,40.8441494,-73.91459929999999
360,192292, 2 AVENUE  , EAST 59 STREET  , EAST 60 STREET  ,40.7606467,-73.9643128,40.761206,-73.96391129999999
361,154496, CROSS BRONX EXPRESSWAY , MORRIS AVENUE  , WEEKS AVENUE  ,40.8452472,-73.90933439999999,40.8451638,-73.9075203
362,72331,E 174 ST, MORRIS AVENUE  , WEEKS AVENUE  ,40.8448356,-73.9093822,40.8447286,-73.907574
363,154454, CROSS BRONX EXPRESSWAY , MARMION AVENUE , PROSPECT AVENUE ,40.8310634,-73.8545513,40.8233567,-73.9002976
364,78800,E 176 ST, MARMION AVENUE , PROSPECT AVENUE ,40.8414805,-73.8885299,40.8426486,-73.8905061
365,78805,FAIRMONT PL, MARMION AVENUE , PROSPECT AVENUE ,40.842124,-73.8878529,40.843195,-73.890036
366,179545, THROGS NECK EXPRESSWAY , HARDING AVENUE , LONGSTREET AVENUE ,40.81732119999999,-73.8061098,40.81736009999999,-73.806011
